{
  "id": "tyne_valley_line",
  "name": "Tyne Valley Line",
  "stations": [
    {
      "id": "newcastle",
      "name": "Newcastle",
      "coordinates": {
        "lat": 54.9683,
        "lng": -1.6174
      },
      "connections": [
        {
          "to": "metrocentre",
          "type": "rail",
          "duration": 8
        }
      ],
      "interchanges": [
        {
          "line": "east_coast_main_line",
          "station": "newcastle"
        }
      ]
    },
    {
      "id": "metrocentre",
      "name": "MetroCentre",
      "coordinates": {
        "lat": 54.9596,
        "lng": -1.6637
      },
      "connections": [
        {
          "to": "newcastle",
          "type": "rail",
          "duration": 8
        },
        {
          "to": "blaydon",
          "type": "rail",
          "duration": 3
        }
      ]
    },
    {
      "id": "blaydon",
      "name": "Blaydon",
      "coordinates": {
        "lat": 54.9637,
        "lng": -1.7121
      },
      "connections": [
        {
          "to": "metrocentre",
          "type": "rail",
          "duration": 3
        },
        {
          "to": "wylam",
          "type": "rail",
          "duration": 5
        }
      ]
    },
    {
      "id": "wylam",
      "name": "Wylam",
      "coordinates": {
        "lat": 54.9753,
        "lng": -1.8152
      },
      "connections": [
        {
          "to": "blaydon",
          "type": "rail",
          "duration": 5
        },
        {
          "to": "prudhoe",
          "type": "rail",
          "duration": 6
        }
      ]
    },
    {
      "id": "prudhoe",
      "name": "Prudhoe",
      "coordinates": {
        "lat": 54.9642,
        "lng": -1.8522
      },
      "connections": [
        {
          "to": "wylam",
          "type": "rail",
          "duration": 6
        },
        {
          "to": "stocksfield",
          "type": "rail",
          "duration": 5
        }
      ]
    },
    {
      "id": "stocksfield",
      "name": "Stocksfield",
      "coordinates": {
        "lat": 54.9450,
        "lng": -1.9060
      },
      "connections": [
        {
          "to": "prudhoe",
          "type": "rail",
          "duration": 5
        },
        {
          "to": "riding_mill",
          "type": "rail",
          "duration": 4
        }
      ]
    },
    {
      "id": "riding_mill",
      "name": "Riding Mill",
      "coordinates": {
        "lat": 54.9473,
        "lng": -1.9636
      },
      "connections": [
        {
          "to": "stocksfield",
          "type": "rail",
          "duration": 4
        },
        {
          "to": "corbridge",
          "type": "rail",
          "duration": 7
        }
      ]
    },
    {
      "id": "corbridge",
      "name": "Corbridge",
      "coordinates": {
        "lat": 54.9726,
        "lng": -2.0163
      },
      "connections": [
        {
          "to": "riding_mill",
          "type": "rail",
          "duration": 7
        },
        {
          "to": "hexham",
          "type": "rail",
          "duration": 10
        }
      ]
    },
    {
      "id": "hexham",
      "name": "Hexham",
      "coordinates": {
        "lat": 54.9707,
        "lng": -2.1023
      },
      "connections": [
        {
          "to": "corbridge",
          "type": "rail",
          "duration": 10
        },
        {
          "to": "haydon_bridge",
          "type": "rail",
          "duration": 12
        }
      ]
    },
    {
      "id": "haydon_bridge",
      "name": "Haydon Bridge",
      "coordinates": {
        "lat": 54.9732,
        "lng": -2.2568
      },
      "connections": [
        {
          "to": "hexham",
          "type": "rail",
          "duration": 12
        },
        {
          "to": "bardon_mill",
          "type": "rail",
          "duration": 6
        }
      ]
    },
    {
      "id": "bardon_mill",
      "name": "Bardon Mill",
      "coordinates": {
        "lat": 54.9840,
        "lng": -2.3586
      },
      "connections": [
        {
          "to": "haydon_bridge",
          "type": "rail",
          "duration": 6
        },
        {
          "to": "haltwhistle",
          "type": "rail",
          "duration": 8
        }
      ]
    },
    {
      "id": "haltwhistle",
      "name": "Haltwhistle",
      "coordinates": {
        "lat": 54.9701,
        "lng": -2.4593
      },
      "connections": [
        {
          "to": "bardon_mill",
          "type": "rail",
          "duration": 8
        },
        {
          "to": "brampton",
          "type": "rail",
          "duration": 14
        }
      ]
    },
    {
      "id": "brampton_cumbria",
      "name": "Brampton (Cumbria)",
      "coordinates": {
        "lat": 54.9432,
        "lng": -2.6962
      },
      "connections": [
        {
          "to": "haltwhistle",
          "type": "rail",
          "duration": 14
        },
        {
          "to": "wetheral",
          "type": "rail",
          "duration": 12
        }
      ]
    },
    {
      "id": "wetheral",
      "name": "Wetheral",
      "coordinates": {
        "lat": 54.8891,
        "lng": -2.8326
      },
      "connections": [
        {
          "to": "brampton_cumbria",
          "type": "rail",
          "duration": 12
        },
        {
          "to": "carlisle",
          "type": "rail",
          "duration": 10
        }
      ]
    },
    {
      "id": "carlisle",
      "name": "Carlisle",
      "coordinates": {
        "lat": 54.8917,
        "lng": -2.9333
      },
      "connections": [
        {
          "to": "wetheral",
          "type": "rail",
          "duration": 10
        }
      ],
      "interchanges": [
        {
          "line": "west_coast_main_line",
          "station": "carlisle"
        }
      ]
    }
  ]
}