{
  "metadata": {
    "line_name": "Tyne Valley Line",
    "description": "Newcastle to Carlisle via Hexham",
    "operator": "Northern",
    "total_stations": 14,
    "frequency": {
      "weekday_peak": "Every 60 minutes",
      "weekday_off_peak": "Every 60-120 minutes",
      "weekend": "Every 60-120 minutes",
      "night": "No service"
    }
  },
  "stations": [
    {
      "name": "Newcastle",
      "code": "NCL",
      "coordinates": {"lat": 54.9681, "lng": -1.6181},
      "interchange": ["East Coast Main Line", "Tyne and Wear Metro"],
      "times": {
        "morning": ["05:45", "06:45", "07:45", "08:45", "09:45", "10:45", "11:45"],
        "afternoon": ["12:45", "13:45", "14:45", "15:45", "16:45"],
        "evening": ["17:45", "18:45", "19:45", "20:45", "21:45", "22:45"],
        "night": []
      }
    },
    {
      "name": "MetroCentre",
      "code": "MCE",
      "coordinates": {"lat": 54.9581, "lng": -1.6681},
      "interchange": [],
      "times": {
        "morning": ["05:52", "06:52", "07:52", "08:52", "09:52", "10:52", "11:52"],
        "afternoon": ["12:52", "13:52", "14:52", "15:52", "16:52"],
        "evening": ["17:52", "18:52", "19:52", "20:52", "21:52", "22:52"],
        "night": []
      }
    },
    {
      "name": "Blaydon",
      "code": "BLO",
      "coordinates": {"lat": 54.9631, "lng": -1.7131},
      "interchange": [],
      "times": {
        "morning": ["05:57", "06:57", "07:57", "08:57", "09:57", "10:57", "11:57"],
        "afternoon": ["12:57", "13:57", "14:57", "15:57", "16:57"],
        "evening": ["17:57", "18:57", "19:57", "20:57", "21:57", "22:57"],
        "night": []
      }
    },
    {
      "name": "Wylam",
      "code": "WYM",
      "coordinates": {"lat": 54.9781, "lng": -1.8181},
      "interchange": [],
      "times": {
        "morning": ["06:04", "07:04", "08:04", "09:04", "10:04", "11:04"],
        "afternoon": ["12:04", "13:04", "14:04", "15:04", "16:04", "17:04"],
        "evening": ["18:04", "19:04", "20:04", "21:04", "22:04", "23:04"],
        "night": []
      }
    },
    {
      "name": "Prudhoe",
      "code": "PRU",
      "coordinates": {"lat": 54.9681, "lng": -1.8581},
      "interchange": [],
      "times": {
        "morning": ["06:10", "07:10", "08:10", "09:10", "10:10", "11:10"],
        "afternoon": ["12:10", "13:10", "14:10", "15:10", "16:10", "17:10"],
        "evening": ["18:10", "19:10", "20:10", "21:10", "22:10", "23:10"],
        "night": []
      }
    },
    {
      "name": "Stocksfield",
      "code": "SKS",
      "coordinates": {"lat": 54.9481, "lng": -1.9081},
      "interchange": [],
      "times": {
        "morning": ["06:15", "07:15", "08:15", "09:15", "10:15", "11:15"],
        "afternoon": ["12:15", "13:15", "14:15", "15:15", "16:15", "17:15"],
        "evening": ["18:15", "19:15", "20:15", "21:15", "22:15", "23:15"],
        "night": []
      }
    },
    {
      "name": "Riding Mill",
      "code": "RDM",
      "coordinates": {"lat": 54.9481, "lng": -1.9681},
      "interchange": [],
      "times": {
        "morning": ["06:19", "07:19", "08:19", "09:19", "10:19", "11:19"],
        "afternoon": ["12:19", "13:19", "14:19", "15:19", "16:19", "17:19"],
        "evening": ["18:19", "19:19", "20:19", "21:19", "22:19", "23:19"],
        "night": []
      }
    },
    {
      "name": "Corbridge",
      "code": "CRB",
      "coordinates": {"lat": 54.9731, "lng": -2.0181},
      "interchange": [],
      "times": {
        "morning": ["06:24", "07:24", "08:24", "09:24", "10:24", "11:24"],
        "afternoon": ["12:24", "13:24", "14:24", "15:24", "16:24", "17:24"],
        "evening": ["18:24", "19:24", "20:24", "21:24", "22:24", "23:24"],
        "night": []
      }
    },
    {
      "name": "Hexham",
      "code": "HEX",
      "coordinates": {"lat": 54.9731, "lng": -2.1031},
      "interchange": [],
      "times": {
        "morning": ["06:30", "07:30", "08:30", "09:30", "10:30", "11:30"],
        "afternoon": ["12:30", "13:30", "14:30", "15:30", "16:30", "17:30"],
        "evening": ["18:30", "19:30", "20:30", "21:30", "22:30", "23:30"],
        "night": []
      }
    },
    {
      "name": "Haydon Bridge",
      "code": "HDB",
      "coordinates": {"lat": 54.9781, "lng": -2.2281},
      "interchange": [],
      "times": {
        "morning": ["06:38", "07:38", "08:38", "09:38", "10:38", "11:38"],
        "afternoon": ["12:38", "13:38", "14:38", "15:38", "16:38", "17:38"],
        "evening": ["18:38", "19:38", "20:38", "21:38", "22:38", "23:38"],
        "night": []
      }
    },
    {
      "name": "Bardon Mill",
      "code": "BLL",
      "coordinates": {"lat": 54.9831, "lng": -2.3581},
      "interchange": [],
      "times": {
        "morning": ["06:45", "07:45", "08:45", "09:45", "10:45", "11:45"],
        "afternoon": ["12:45", "13:45", "14:45", "15:45", "16:45", "17:45"],
        "evening": ["18:45", "19:45", "20:45", "21:45", "22:45", "23:45"],
        "night": []
      }
    },
    {
      "name": "Haltwhistle",
      "code": "HWH",
      "coordinates": {"lat": 54.9681, "lng": -2.4581},
      "interchange": [],
      "times": {
        "morning": ["06:52", "07:52", "08:52", "09:52", "10:52", "11:52"],
        "afternoon": ["12:52", "13:52", "14:52", "15:52", "16:52", "17:52"],
        "evening": ["18:52", "19:52", "20:52", "21:52", "22:52", "23:52"],
        "night": []
      }
    },
    {
      "name": "Brampton",
      "code": "BMP",
      "coordinates": {"lat": 54.9431, "lng": -2.6981},
      "interchange": [],
      "times": {
        "morning": ["07:05", "08:05", "09:05", "10:05", "11:05"],
        "afternoon": ["12:05", "13:05", "14:05", "15:05", "16:05", "17:05"],
        "evening": ["18:05", "19:05", "20:05", "21:05", "22:05", "23:05"],
        "night": []
      }
    },
    {
      "name": "Carlisle",
      "code": "CAR",
      "coordinates": {"lat": 54.8881, "lng": -2.9331},
      "interchange": ["West Coast Main Line", "Cumbrian Coast Line", "Settle-Carlisle Line"],
      "times": {
        "morning": ["07:20", "08:20", "09:20", "10:20", "11:20"],
        "afternoon": ["12:20", "13:20", "14:20", "15:20", "16:20", "17:20"],
        "evening": ["18:20", "19:20", "20:20", "21:20", "22:20", "23:20"],
        "night": []
      }
    }
  ]
}